WARNING: no messages received and simulated time is active.
Is /clock being published?
header: 
  seq: 0
  stamp: 
    secs: 0
    nsecs:         0
  frame_id: "map"
pose: 
  position: 
    x: 5.65595434987
    y: -4.45151345211
    z: 0.0
  orientation: 
    x: 0.0
    y: 0.0
    z: -0.753765187691
    w: 0.657143851699
---
header: 
  seq: 1
  stamp: 
    secs: 0
    nsecs:         0
  frame_id: "map"
pose: 
  position: 
    x: 5.84964484348
    y: -4.63255135764
    z: 0.0
  orientation: 
    x: 0.0
    y: 0.0
    z: 0.400047006578
    w: 0.916494622203
---
header: 
  seq: 2
  stamp: 
    secs: 0
    nsecs:         0
  frame_id: "map"
pose: 
  position: 
    x: 5.76971320167
    y: -4.36235939804
    z: 0.0
  orientation: 
    x: 0.0
    y: 0.0
    z: -0.331938037485
    w: 0.943301192234
---
header: 
  seq: 3
  stamp: 
    secs: 0
    nsecs:         0
  frame_id: "map"
pose: 
  position: 
    x: 5.94870032592
    y: -4.36534859486
    z: 0.0
  orientation: 
    x: 0.0
    y: 0.0
    z: 0.912067102978
    w: -0.410040973155
---
header: 
  seq: 4
  stamp: 
    secs: 0
    nsecs:         0
  frame_id: "map"
pose: 
  position: 
    x: 5.90274085258
    y: -4.49934670477
    z: 0.0
  orientation: 
    x: 0.0
    y: 0.0
    z: 0.955400795369
    w: -0.295312241885
---
header: 
  seq: 5
  stamp: 
    secs: 0
    nsecs:         0
  frame_id: "map"
pose: 
  position: 
    x: 5.83260077585
    y: -4.59914529024
    z: 0.0
  orientation: 
    x: 0.0
    y: 0.0
    z: 0.997562309355
    w: 0.0697813653852
---
header: 
  seq: 6
  stamp: 
    secs: 0
    nsecs:         0
  frame_id: "map"
pose: 
  position: 
    x: 5.70491217531
    y: -4.63752419706
    z: 0.0
  orientation: 
    x: 0.0
    y: 0.0
    z: 0.760631750723
    w: 0.649183594826
---
header: 
  seq: 7
  stamp: 
    secs: 0
    nsecs:         0
  frame_id: "map"
pose: 
  position: 
    x: 5.65550421559
    y: -4.3676343615
    z: 0.0
  orientation: 
    x: 0.0
    y: 0.0
    z: 0.675442736711
    w: 0.73741244187
---
header: 
  seq: 8
  stamp: 
    secs: 0
    nsecs:         0
  frame_id: "map"
pose: 
  position: 
    x: 5.66580695012
    y: -4.21798836318
    z: 0.0
  orientation: 
    x: 0.0
    y: 0.0
    z: 0.675444494838
    w: 0.737410831487
---
header: 
  seq: 9
  stamp: 
    secs: 0
    nsecs:         0
  frame_id: "map"
pose: 
  position: 
    x: 5.36751745593
    y: 0.199450972668
    z: 0.0
  orientation: 
    x: 0.0
    y: 0.0
    z: 0.610333053479
    w: 0.792144913404
---
header: 
  seq: 10
  stamp: 
    secs: 0
    nsecs:         0
  frame_id: "map"
pose: 
  position: 
    x: 5.20145452621
    y: 0.497449023984
    z: 0.0
  orientation: 
    x: 0.0
    y: 0.0
    z: -0.703381704408
    w: 0.710812336629
---
header: 
  seq: 11
  stamp: 
    secs: 0
    nsecs:         0
  frame_id: "map"
pose: 
  position: 
    x: 5.20970495358
    y: 0.207846358535
    z: 0.0
  orientation: 
    x: 0.0
    y: 0.0
    z: -0.737410681183
    w: 0.67544465893
---
header: 
  seq: 12
  stamp: 
    secs: 0
    nsecs:         0
  frame_id: "map"
pose: 
  position: 
    x: 5.20385168201
    y: -0.0876736653995
    z: 0.0
  orientation: 
    x: 0.0
    y: 0.0
    z: -0.753766441092
    w: 0.657142414005
---
header: 
  seq: 13
  stamp: 
    secs: 0
    nsecs:         0
  frame_id: "map"
pose: 
  position: 
    x: 5.21321142336
    y: -0.381615930522
    z: 0.0
  orientation: 
    x: 0.0
    y: 0.0
    z: -0.785101408224
    w: 0.619367240662
---
header: 
  seq: 14
  stamp: 
    secs: 0
    nsecs:         0
  frame_id: "map"
pose: 
  position: 
    x: 5.20775182855
    y: -0.67933932363
    z: 0.0
  orientation: 
    x: 0.0
    y: 0.0
    z: -0.800066598437
    w: 0.599911191815
---
header: 
  seq: 15
  stamp: 
    secs: 0
    nsecs:         0
  frame_id: "map"
pose: 
  position: 
    x: 5.20234869126
    y: -0.977810397414
    z: 0.0
  orientation: 
    x: 0.0
    y: 0.0
    z: -0.814548093057
    w: 0.580096030064
---
header: 
  seq: 16
  stamp: 
    secs: 0
    nsecs:         0
  frame_id: "map"
pose: 
  position: 
    x: 5.1514011197
    y: -1.27949039458
    z: 0.0
  orientation: 
    x: 0.0
    y: 0.0
    z: -0.785101408224
    w: 0.619367240662
---
header: 
  seq: 17
  stamp: 
    secs: 0
    nsecs:         0
  frame_id: "map"
pose: 
  position: 
    x: 5.16114233078
    y: -1.57639439071
    z: 0.0
  orientation: 
    x: 0.0
    y: 0.0
    z: -0.814548093057
    w: 0.580096030064
---
header: 
  seq: 18
  stamp: 
    secs: 0
    nsecs:         0
  frame_id: "map"
pose: 
  position: 
    x: 5.15576208168
    y: -1.87561161929
    z: 0.0
  orientation: 
    x: 0.0
    y: 0.0
    z: -0.828539074612
    w: 0.559931247424
---
header: 
  seq: 19
  stamp: 
    secs: 0
    nsecs:         0
  frame_id: "map"
pose: 
  position: 
    x: 5.10473363854
    y: -2.17579778099
    z: 0.0
  orientation: 
    x: 0.0
    y: 0.0
    z: -0.800065025105
    w: 0.599913290071
---
header: 
  seq: 20
  stamp: 
    secs: 0
    nsecs:         0
  frame_id: "map"
pose: 
  position: 
    x: 5.1145557212
    y: -2.4741940867
    z: 0.0
  orientation: 
    x: 0.0
    y: 0.0
    z: -0.828539074612
    w: 0.559931247424
---
header: 
  seq: 21
  stamp: 
    secs: 0
    nsecs:         0
  frame_id: "map"
pose: 
  position: 
    x: 5.06352727806
    y: -2.77438177428
    z: 0.0
  orientation: 
    x: 0.0
    y: 0.0
    z: -0.800066455407
    w: 0.599911382566
---
header: 
  seq: 22
  stamp: 
    secs: 0
    nsecs:         0
  frame_id: "map"
pose: 
  position: 
    x: 5.05812414077
    y: -3.07285284807
    z: 0.0
  orientation: 
    x: 0.0
    y: 0.0
    z: -0.814546571692
    w: 0.5800981663
---
header: 
  seq: 23
  stamp: 
    secs: 0
    nsecs:         0
  frame_id: "map"
pose: 
  position: 
    x: 5.05274541755
    y: -3.37206855077
    z: 0.0
  orientation: 
    x: 0.0
    y: 0.0
    z: -0.828539074612
    w: 0.559931247424
---
header: 
  seq: 24
  stamp: 
    secs: 0
    nsecs:         0
  frame_id: "map"
pose: 
  position: 
    x: 5.0017169744
    y: -3.67225623835
    z: 0.0
  orientation: 
    x: 0.0
    y: 0.0
    z: -0.800066455407
    w: 0.599911382566
---
header: 
  seq: 25
  stamp: 
    secs: 0
    nsecs:         0
  frame_id: "map"
pose: 
  position: 
    x: 5.01153753119
    y: -3.97065254406
    z: 0.0
  orientation: 
    x: 0.0
    y: 0.0
    z: -0.828537606131
    w: 0.559933420352
---
header: 
  seq: 26
  stamp: 
    secs: 0
    nsecs:         0
  frame_id: "map"
pose: 
  position: 
    x: 4.96051061393
    y: -4.27084023164
    z: 0.0
  orientation: 
    x: 0.0
    y: 0.0
    z: -0.800066455407
    w: 0.599911382566
---
header: 
  seq: 27
  stamp: 
    secs: 0
    nsecs:         0
  frame_id: "map"
pose: 
  position: 
    x: 4.95510747664
    y: -4.56931130542
    z: 0.0
  orientation: 
    x: 0.0
    y: 0.0
    z: -0.814546571692
    w: 0.5800981663
---
header: 
  seq: 28
  stamp: 
    secs: 0
    nsecs:         0
  frame_id: "map"
pose: 
  position: 
    x: 4.90416143096
    y: -4.87098977672
    z: 0.0
  orientation: 
    x: 0.0
    y: 0.0
    z: -0.785103032576
    w: 0.61936518165
---
header: 
  seq: 29
  stamp: 
    secs: 0
    nsecs:         0
  frame_id: "map"
pose: 
  position: 
    x: 4.91390111616
    y: -5.16789377284
    z: 0.0
  orientation: 
    x: 0.0
    y: 0.0
    z: -0.814548093057
    w: 0.580096030064
---
header: 
  seq: 30
  stamp: 
    secs: 0
    nsecs:         0
  frame_id: "map"
pose: 
  position: 
    x: 4.90852086706
    y: -5.46711100142
    z: 0.0
  orientation: 
    x: 0.0
    y: 0.0
    z: -0.828537606131
    w: 0.559933420352
---
header: 
  seq: 31
  stamp: 
    secs: 0
    nsecs:         0
  frame_id: "map"
pose: 
  position: 
    x: 4.85749394979
    y: -5.767298689
    z: 0.0
  orientation: 
    x: 0.0
    y: 0.0
    z: -0.800066455407
    w: 0.599911382566
---
header: 
  seq: 32
  stamp: 
    secs: 0
    nsecs:         0
  frame_id: "map"
pose: 
  position: 
    x: 4.85209081251
    y: -6.06576976278
    z: 0.0
  orientation: 
    x: 0.0
    y: 0.0
    z: -0.814548093057
    w: 0.580096030064
---
header: 
  seq: 33
  stamp: 
    secs: 0
    nsecs:         0
  frame_id: "map"
pose: 
  position: 
    x: 4.80114324095
    y: -6.36744823407
    z: 0.0
  orientation: 
    x: 0.0
    y: 0.0
    z: -0.785101408224
    w: 0.619367240662
---
header: 
  seq: 34
  stamp: 
    secs: 0
    nsecs:         0
  frame_id: "map"
pose: 
  position: 
    x: 4.81088597791
    y: -6.6643522302
    z: 0.0
  orientation: 
    x: 0.0
    y: 0.0
    z: -0.814548093057
    w: 0.580096030064
---
header: 
  seq: 35
  stamp: 
    secs: 0
    nsecs:         0
  frame_id: "map"
pose: 
  position: 
    x: 4.80550420292
    y: -6.96356945878
    z: 0.0
  orientation: 
    x: 0.0
    y: 0.0
    z: -0.828539074612
    w: 0.559931247424
---
header: 
  seq: 36
  stamp: 
    secs: 0
    nsecs:         0
  frame_id: "map"
pose: 
  position: 
    x: 4.75447575978
    y: -7.26375638342
    z: 0.0
  orientation: 
    x: 0.0
    y: 0.0
    z: -0.800065025105
    w: 0.599913290071
---
header: 
  seq: 37
  stamp: 
    secs: 0
    nsecs:         0
  frame_id: "map"
pose: 
  position: 
    x: 4.76429784245
    y: -7.56215268913
    z: 0.0
  orientation: 
    x: 0.0
    y: 0.0
    z: -0.828539074612
    w: 0.559931247424
---
header: 
  seq: 38
  stamp: 
    secs: 0
    nsecs:         0
  frame_id: "map"
pose: 
  position: 
    x: 4.7132693993
    y: -7.86234037671
    z: 0.0
  orientation: 
    x: 0.0
    y: 0.0
    z: -0.800066455407
    w: 0.599911382566
---
header: 
  seq: 39
  stamp: 
    secs: 0
    nsecs:         0
  frame_id: "map"
pose: 
  position: 
    x: 4.70786626202
    y: -8.16081068755
    z: 0.0
  orientation: 
    x: 0.0
    y: 0.0
    z: -0.814546709998
    w: 0.580097972097
---
header: 
  seq: 40
  stamp: 
    secs: 0
    nsecs:         0
  frame_id: "map"
pose: 
  position: 
    x: 4.70248753879
    y: -8.46002791613
    z: 0.0
  orientation: 
    x: 0.0
    y: 0.0
    z: -0.828539074612
    w: 0.559931247424
---
header: 
  seq: 41
  stamp: 
    secs: 0
    nsecs:         0
  frame_id: "map"
pose: 
  position: 
    x: 4.65145909565
    y: -8.76021484077
    z: 0.0
  orientation: 
    x: 0.0
    y: 0.0
    z: -0.800066455407
    w: 0.599911382566
---
header: 
  seq: 42
  stamp: 
    secs: 0
    nsecs:         0
  frame_id: "map"
pose: 
  position: 
    x: 4.66127965244
    y: -9.05861114649
    z: 0.0
  orientation: 
    x: 0.0
    y: 0.0
    z: -0.828537606131
    w: 0.559933420352
---
header: 
  seq: 43
  stamp: 
    secs: 0
    nsecs:         0
  frame_id: "map"
pose: 
  position: 
    x: 4.61025273517
    y: -9.35879807113
    z: 0.0
  orientation: 
    x: 0.0
    y: 0.0
    z: -0.800066455407
    w: 0.599911382566
---
header: 
  seq: 44
  stamp: 
    secs: 0
    nsecs:         0
  frame_id: "map"
pose: 
  position: 
    x: 4.60440709299
    y: -9.49320206483
    z: 0.0
  orientation: 
    x: 0.0
    y: 0.0
    z: 0.996890153736
    w: -0.0788036888984
---
header: 
  seq: 45
  stamp: 
    secs: 0
    nsecs:         0
  frame_id: "map"
pose: 
  position: 
    x: 4.55452458493
    y: -9.48976502254
    z: 0.0
  orientation: 
    x: 0.0
    y: 0.0
    z: 0.996889627643
    w: -0.0788103438564
---
header: 
  seq: 46
  stamp: 
    secs: 0
    nsecs:         0
  frame_id: "map"
pose: 
  position: 
    x: 4.46021306008
    y: -9.61378998777
    z: 0.0
  orientation: 
    x: 0.0
    y: 0.0
    z: 0.760631750723
    w: 0.649183594826
---
header: 
  seq: 47
  stamp: 
    secs: 0
    nsecs:         0
  frame_id: "map"
pose: 
  position: 
    x: 4.38113896223
    y: -9.3507147275
    z: 0.0
  orientation: 
    x: 0.0
    y: 0.0
    z: 0.638445915672
    w: 0.769666689393
---
header: 
  seq: 48
  stamp: 
    secs: 0
    nsecs:         0
  frame_id: "map"
pose: 
  position: 
    x: 4.4017429054
    y: -9.05142349379
    z: 0.0
  orientation: 
    x: 0.0
    y: 0.0
    z: 0.638447750699
    w: 0.769665167217
---
header: 
  seq: 49
  stamp: 
    secs: 0
    nsecs:         0
  frame_id: "map"
pose: 
  position: 
    x: 4.4223453227
    y: -8.75213149715
    z: 0.0
  orientation: 
    x: 0.0
    y: 0.0
    z: 0.638445915672
    w: 0.769666689393
---
header: 
  seq: 50
  stamp: 
    secs: 0
    nsecs:         0
  frame_id: "map"
pose: 
  position: 
    x: 4.44294926588
    y: -8.45284026344
    z: 0.0
  orientation: 
    x: 0.0
    y: 0.0
    z: 0.638445915672
    w: 0.769666689393
---
header: 
  seq: 51
  stamp: 
    secs: 0
    nsecs:         0
  frame_id: "map"
pose: 
  position: 
    x: 4.47847020147
    y: -8.15050490127
    z: 0.0
  orientation: 
    x: 0.0
    y: 0.0
    z: 0.65714404339
    w: 0.753765020571
---
header: 
  seq: 52
  stamp: 
    secs: 0
    nsecs:         0
  frame_id: "map"
pose: 
  position: 
    x: 4.49907261877
    y: -7.85121366756
    z: 0.0
  orientation: 
    x: 0.0
    y: 0.0
    z: 0.657142246273
    w: 0.753766587322
---
header: 
  seq: 53
  stamp: 
    secs: 0
    nsecs:         0
  frame_id: "map"
pose: 
  position: 
    x: 4.51967656195
    y: -7.55192243385
    z: 0.0
  orientation: 
    x: 0.0
    y: 0.0
    z: 0.657142246273
    w: 0.753766587322
---
header: 
  seq: 54
  stamp: 
    secs: 0
    nsecs:         0
  frame_id: "map"
pose: 
  position: 
    x: 4.54028050512
    y: -7.25262967427
    z: 0.0
  orientation: 
    x: 0.0
    y: 0.0
    z: 0.65714404339
    w: 0.753765020571
---
header: 
  seq: 55
  stamp: 
    secs: 0
    nsecs:         0
  frame_id: "map"
pose: 
  position: 
    x: 4.56088292242
    y: -6.9533392035
    z: 0.0
  orientation: 
    x: 0.0
    y: 0.0
    z: 0.657142246273
    w: 0.753766587322
---
header: 
  seq: 56
  stamp: 
    secs: 0
    nsecs:         0
  frame_id: "map"
pose: 
  position: 
    x: 4.59623601133
    y: -6.65027676002
    z: 0.0
  orientation: 
    x: 0.0
    y: 0.0
    z: 0.675442736711
    w: 0.73741244187
---
header: 
  seq: 57
  stamp: 
    secs: 0
    nsecs:         0
  frame_id: "map"
pose: 
  position: 
    x: 4.61683995451
    y: -6.35098400043
    z: 0.0
  orientation: 
    x: 0.0
    y: 0.0
    z: 0.675444494838
    w: 0.737410831487
---
header: 
  seq: 58
  stamp: 
    secs: 0
    nsecs:         0
  frame_id: "map"
pose: 
  position: 
    x: 4.63744237181
    y: -6.05169200378
    z: 0.0
  orientation: 
    x: 0.0
    y: 0.0
    z: 0.675442736711
    w: 0.73741244187
---
header: 
  seq: 59
  stamp: 
    secs: 0
    nsecs:         0
  frame_id: "map"
pose: 
  position: 
    x: 4.65804631499
    y: -5.75240000713
    z: 0.0
  orientation: 
    x: 0.0
    y: 0.0
    z: 0.675442736711
    w: 0.73741244187
---
header: 
  seq: 60
  stamp: 
    secs: 0
    nsecs:         0
  frame_id: "map"
pose: 
  position: 
    x: 4.67865025816
    y: -5.45310801049
    z: 0.0
  orientation: 
    x: 0.0
    y: 0.0
    z: 0.675444494838
    w: 0.737410831487
---
header: 
  seq: 61
  stamp: 
    secs: 0
    nsecs:         0
  frame_id: "map"
pose: 
  position: 
    x: 4.69925267546
    y: -5.15381753972
    z: 0.0
  orientation: 
    x: 0.0
    y: 0.0
    z: 0.675442736711
    w: 0.73741244187
---
header: 
  seq: 62
  stamp: 
    secs: 0
    nsecs:         0
  frame_id: "map"
pose: 
  position: 
    x: 4.71985661864
    y: -4.85452554307
    z: 0.0
  orientation: 
    x: 0.0
    y: 0.0
    z: 0.675442736711
    w: 0.73741244187
---
header: 
  seq: 63
  stamp: 
    secs: 0
    nsecs:         0
  frame_id: "map"
pose: 
  position: 
    x: 4.74046056182
    y: -4.55523354642
    z: 0.0
  orientation: 
    x: 0.0
    y: 0.0
    z: 0.675444494838
    w: 0.737410831487
---
header: 
  seq: 64
  stamp: 
    secs: 0
    nsecs:         0
  frame_id: "map"
pose: 
  position: 
    x: 4.76106297912
    y: -4.25594154978
    z: 0.0
  orientation: 
    x: 0.0
    y: 0.0
    z: 0.675442736711
    w: 0.73741244187
---
header: 
  seq: 65
  stamp: 
    secs: 0
    nsecs:         0
  frame_id: "map"
pose: 
  position: 
    x: 4.7816669223
    y: -3.95664955313
    z: 0.0
  orientation: 
    x: 0.0
    y: 0.0
    z: 0.675442736711
    w: 0.73741244187
---
header: 
  seq: 66
  stamp: 
    secs: 0
    nsecs:         0
  frame_id: "map"
pose: 
  position: 
    x: 4.80227086547
    y: -3.65735908236
    z: 0.0
  orientation: 
    x: 0.0
    y: 0.0
    z: 0.675444494838
    w: 0.737410831487
---
header: 
  seq: 67
  stamp: 
    secs: 0
    nsecs:         0
  frame_id: "map"
pose: 
  position: 
    x: 4.82287328277
    y: -3.35806708571
    z: 0.0
  orientation: 
    x: 0.0
    y: 0.0
    z: 0.675442736711
    w: 0.73741244187
---
header: 
  seq: 68
  stamp: 
    secs: 0
    nsecs:         0
  frame_id: "map"
pose: 
  position: 
    x: 4.84347722595
    y: -3.05877508907
    z: 0.0
  orientation: 
    x: 0.0
    y: 0.0
    z: 0.675442736711
    w: 0.73741244187
---
header: 
  seq: 69
  stamp: 
    secs: 0
    nsecs:         0
  frame_id: "map"
pose: 
  position: 
    x: 4.86408116913
    y: -2.75948309242
    z: 0.0
  orientation: 
    x: 0.0
    y: 0.0
    z: 0.675444494838
    w: 0.737410831487
---
header: 
  seq: 70
  stamp: 
    secs: 0
    nsecs:         0
  frame_id: "map"
pose: 
  position: 
    x: 4.88468358643
    y: -2.46019262165
    z: 0.0
  orientation: 
    x: 0.0
    y: 0.0
    z: 0.675442736711
    w: 0.73741244187
---
header: 
  seq: 71
  stamp: 
    secs: 0
    nsecs:         0
  frame_id: "map"
pose: 
  position: 
    x: 4.90528752961
    y: -2.160900625
    z: 0.0
  orientation: 
    x: 0.0
    y: 0.0
    z: 0.675442736711
    w: 0.73741244187
---
header: 
  seq: 72
  stamp: 
    secs: 0
    nsecs:         0
  frame_id: "map"
pose: 
  position: 
    x: 4.92589147279
    y: -1.86160862836
    z: 0.0
  orientation: 
    x: 0.0
    y: 0.0
    z: 0.675444494838
    w: 0.737410831487
---
header: 
  seq: 73
  stamp: 
    secs: 0
    nsecs:         0
  frame_id: "map"
pose: 
  position: 
    x: 4.96104009391
    y: -1.55782597002
    z: 0.0
  orientation: 
    x: 0.0
    y: 0.0
    z: 0.693336363394
    w: 0.720614104216
---
header: 
  seq: 74
  stamp: 
    secs: 0
    nsecs:         0
  frame_id: "map"
pose: 
  position: 
    x: 4.96709783326
    y: -1.26302463506
    z: 0.0
  orientation: 
    x: 0.0
    y: 0.0
    z: 0.675442736711
    w: 0.73741244187
---
header: 
  seq: 75
  stamp: 
    secs: 0
    nsecs:         0
  frame_id: "map"
pose: 
  position: 
    x: 4.98770177644
    y: -0.963734164294
    z: 0.0
  orientation: 
    x: 0.0
    y: 0.0
    z: 0.675444494838
    w: 0.737410831487
---
header: 
  seq: 76
  stamp: 
    secs: 0
    nsecs:         0
  frame_id: "map"
pose: 
  position: 
    x: 5.00830419374
    y: -0.664442167646
    z: 0.0
  orientation: 
    x: 0.0
    y: 0.0
    z: 0.675442736711
    w: 0.73741244187
---
header: 
  seq: 77
  stamp: 
    secs: 0
    nsecs:         0
  frame_id: "map"
pose: 
  position: 
    x: 5.02890813692
    y: -0.365150170999
    z: 0.0
  orientation: 
    x: 0.0
    y: 0.0
    z: 0.675442736711
    w: 0.73741244187
---
header: 
  seq: 78
  stamp: 
    secs: 0
    nsecs:         0
  frame_id: "map"
pose: 
  position: 
    x: 5.06405828393
    y: -0.0613675126637
    z: 0.0
  orientation: 
    x: 0.0
    y: 0.0
    z: 0.69333808147
    w: 0.720612451172
---
header: 
  seq: 79
  stamp: 
    secs: 0
    nsecs:         0
  frame_id: "map"
pose: 
  position: 
    x: 5.0701144974
    y: 0.233433822296
    z: 0.0
  orientation: 
    x: 0.0
    y: 0.0
    z: 0.675442736711
    w: 0.73741244187
---
header: 
  seq: 80
  stamp: 
    secs: 0
    nsecs:         0
  frame_id: "map"
pose: 
  position: 
    x: 5.09071844057
    y: 0.532724293064
    z: 0.0
  orientation: 
    x: 0.0
    y: 0.0
    z: 0.675442736711
    w: 0.73741244187
---
header: 
  seq: 81
  stamp: 
    secs: 0
    nsecs:         0
  frame_id: "map"
pose: 
  position: 
    x: 5.1010211751
    y: 0.682370291388
    z: 0.0
  orientation: 
    x: 0.0
    y: 0.0
    z: 0.675444494838
    w: 0.737410831487
---
header: 
  seq: 82
  stamp: 
    secs: 0
    nsecs:         0
  frame_id: "map"
pose: 
  position: 
    x: 5.02764165741
    y: 0.995398250154
    z: 0.0
  orientation: 
    x: 0.0
    y: 0.0
    z: 0.981796764716
    w: 0.189934496062
---
header: 
  seq: 83
  stamp: 
    secs: 0
    nsecs:         0
  frame_id: "map"
pose: 
  position: 
    x: 4.97529638075
    y: 1.04440337784
    z: 0.0
  orientation: 
    x: 0.0
    y: 0.0
    z: 0.993109910726
    w: 0.117186625589
---
header: 
  seq: 84
  stamp: 
    secs: 0
    nsecs:         0
  frame_id: "map"
pose: 
  position: 
    x: 4.61242100913
    y: 0.865193475264
    z: 0.0
  orientation: 
    x: 0.0
    y: 0.0
    z: -0.800066026317
    w: 0.599911954818
---
header: 
  seq: 85
  stamp: 
    secs: 0
    nsecs:         0
  frame_id: "map"
pose: 
  position: 
    x: 4.60701787184
    y: 0.566722401481
    z: 0.0
  orientation: 
    x: 0.0
    y: 0.0
    z: -0.814546571692
    w: 0.5800981663
---
header: 
  seq: 86
  stamp: 
    secs: 0
    nsecs:         0
  frame_id: "map"
pose: 
  position: 
    x: 4.60163914862
    y: 0.267505172901
    z: 0.0
  orientation: 
    x: 0.0
    y: 0.0
    z: -0.828539074612
    w: 0.559931247424
---
header: 
  seq: 87
  stamp: 
    secs: 0
    nsecs:         0
  frame_id: "map"
pose: 
  position: 
    x: 4.55061070547
    y: -0.0326825146777
    z: 0.0
  orientation: 
    x: 0.0
    y: 0.0
    z: -0.800066455407
    w: 0.599911382566
---
header: 
  seq: 88
  stamp: 
    secs: 0
    nsecs:         0
  frame_id: "map"
pose: 
  position: 
    x: 4.56043126226
    y: -0.331078820394
    z: 0.0
  orientation: 
    x: 0.0
    y: 0.0
    z: -0.828537606131
    w: 0.559933420352
---
header: 
  seq: 89
  stamp: 
    secs: 0
    nsecs:         0
  frame_id: "map"
pose: 
  position: 
    x: 4.509404345
    y: -0.631264982093
    z: 0.0
  orientation: 
    x: 0.0
    y: 0.0
    z: -0.800066598437
    w: 0.599911191815
---
header: 
  seq: 90
  stamp: 
    secs: 0
    nsecs:         0
  frame_id: "map"
pose: 
  position: 
    x: 4.50400120771
    y: -0.929736055877
    z: 0.0
  orientation: 
    x: 0.0
    y: 0.0
    z: -0.814548093057
    w: 0.580096030064
---
header: 
  seq: 91
  stamp: 
    secs: 0
    nsecs:         0
  frame_id: "map"
pose: 
  position: 
    x: 4.45305363615
    y: -1.23141605305
    z: 0.0
  orientation: 
    x: 0.0
    y: 0.0
    z: -0.785101408224
    w: 0.619367240662
---
header: 
  seq: 92
  stamp: 
    secs: 0
    nsecs:         0
  frame_id: "map"
pose: 
  position: 
    x: 4.46279484723
    y: -1.52832004917
    z: 0.0
  orientation: 
    x: 0.0
    y: 0.0
    z: -0.814548093057
    w: 0.580096030064
---
header: 
  seq: 93
  stamp: 
    secs: 0
    nsecs:         0
  frame_id: "map"
pose: 
  position: 
    x: 4.45741459813
    y: -1.82753727775
    z: 0.0
  orientation: 
    x: 0.0
    y: 0.0
    z: -0.828539074612
    w: 0.559931247424
---
header: 
  seq: 94
  stamp: 
    secs: 0
    nsecs:         0
  frame_id: "map"
pose: 
  position: 
    x: 4.40638615499
    y: -2.12772343945
    z: 0.0
  orientation: 
    x: 0.0
    y: 0.0
    z: -0.800065025105
    w: 0.599913290071
---
header: 
  seq: 95
  stamp: 
    secs: 0
    nsecs:         0
  frame_id: "map"
pose: 
  position: 
    x: 4.40098454358
    y: -2.42619451323
    z: 0.0
  orientation: 
    x: 0.0
    y: 0.0
    z: -0.814548093057
    w: 0.580096030064
---
header: 
  seq: 96
  stamp: 
    secs: 0
    nsecs:         0
  frame_id: "map"
pose: 
  position: 
    x: 4.35003697202
    y: -2.72787451041
    z: 0.0
  orientation: 
    x: 0.0
    y: 0.0
    z: -0.785103032576
    w: 0.61936518165
---
header: 
  seq: 97
  stamp: 
    secs: 0
    nsecs:         0
  frame_id: "map"
pose: 
  position: 
    x: 4.35977665722
    y: -3.02477850653
    z: 0.0
  orientation: 
    x: 0.0
    y: 0.0
    z: -0.814546571692
    w: 0.5800981663
---
header: 
  seq: 98
  stamp: 
    secs: 0
    nsecs:         0
  frame_id: "map"
pose: 
  position: 
    x: 4.354397934
    y: -3.32399420923
    z: 0.0
  orientation: 
    x: 0.0
    y: 0.0
    z: -0.828539074612
    w: 0.559931247424
---
header: 
  seq: 99
  stamp: 
    secs: 0
    nsecs:         0
  frame_id: "map"
pose: 
  position: 
    x: 4.30336949085
    y: -3.62418189681
    z: 0.0
  orientation: 
    x: 0.0
    y: 0.0
    z: -0.800066455407
    w: 0.599911382566
---
header: 
  seq: 100
  stamp: 
    secs: 0
    nsecs:         0
  frame_id: "map"
pose: 
  position: 
    x: 4.31319004764
    y: -3.92257820252
    z: 0.0
  orientation: 
    x: 0.0
    y: 0.0
    z: -0.828537606131
    w: 0.559933420352
---
header: 
  seq: 101
  stamp: 
    secs: 0
    nsecs:         0
  frame_id: "map"
pose: 
  position: 
    x: 4.26216313038
    y: -4.2227658901
    z: 0.0
  orientation: 
    x: 0.0
    y: 0.0
    z: -0.800066455407
    w: 0.599911382566
---
header: 
  seq: 102
  stamp: 
    secs: 0
    nsecs:         0
  frame_id: "map"
pose: 
  position: 
    x: 4.25675999309
    y: -4.52123696389
    z: 0.0
  orientation: 
    x: 0.0
    y: 0.0
    z: -0.814546571692
    w: 0.5800981663
---
header: 
  seq: 103
  stamp: 
    secs: 0
    nsecs:         0
  frame_id: "map"
pose: 
  position: 
    x: 4.25138126986
    y: -4.82045266659
    z: 0.0
  orientation: 
    x: 0.0
    y: 0.0
    z: -0.828539074612
    w: 0.559931247424
---
header: 
  seq: 104
  stamp: 
    secs: 0
    nsecs:         0
  frame_id: "map"
pose: 
  position: 
    x: 4.20035282672
    y: -5.12064035417
    z: 0.0
  orientation: 
    x: 0.0
    y: 0.0
    z: -0.800064882074
    w: 0.599913480821
---
header: 
  seq: 105
  stamp: 
    secs: 0
    nsecs:         0
  frame_id: "map"
pose: 
  position: 
    x: 4.21017490939
    y: -5.41903665988
    z: 0.0
  orientation: 
    x: 0.0
    y: 0.0
    z: -0.828539074612
    w: 0.559931247424
---
header: 
  seq: 106
  stamp: 
    secs: 0
    nsecs:         0
  frame_id: "map"
pose: 
  position: 
    x: 4.15914646624
    y: -5.71922434746
    z: 0.0
  orientation: 
    x: 0.0
    y: 0.0
    z: -0.800066455407
    w: 0.599911382566
---
header: 
  seq: 107
  stamp: 
    secs: 0
    nsecs:         0
  frame_id: "map"
pose: 
  position: 
    x: 4.15374485483
    y: -6.01769389537
    z: 0.0
  orientation: 
    x: 0.0
    y: 0.0
    z: -0.814546709998
    w: 0.580097972097
---
header: 
  seq: 108
  stamp: 
    secs: 0
    nsecs:         0
  frame_id: "map"
pose: 
  position: 
    x: 4.10279728327
    y: -6.31937389254
    z: 0.0
  orientation: 
    x: 0.0
    y: 0.0
    z: -0.785103032576
    w: 0.61936518165
---
header: 
  seq: 109
  stamp: 
    secs: 0
    nsecs:         0
  frame_id: "map"
pose: 
  position: 
    x: 4.11253849436
    y: -6.61627712572
    z: 0.0
  orientation: 
    x: 0.0
    y: 0.0
    z: -0.814548093057
    w: 0.580096030064
---
header: 
  seq: 110
  stamp: 
    secs: 0
    nsecs:         0
  frame_id: "map"
pose: 
  position: 
    x: 4.10715671937
    y: -6.9154943543
    z: 0.0
  orientation: 
    x: 0.0
    y: 0.0
    z: -0.828537606131
    w: 0.559933420352
---
header: 
  seq: 111
  stamp: 
    secs: 0
    nsecs:         0
  frame_id: "map"
pose: 
  position: 
    x: 4.05612980211
    y: -7.21568127894
    z: 0.0
  orientation: 
    x: 0.0
    y: 0.0
    z: -0.800066455407
    w: 0.599911382566
---
header: 
  seq: 112
  stamp: 
    secs: 0
    nsecs:         0
  frame_id: "map"
pose: 
  position: 
    x: 4.05072666482
    y: -7.51415235272
    z: 0.0
  orientation: 
    x: 0.0
    y: 0.0
    z: -0.814548093057
    w: 0.580096030064
---
header: 
  seq: 113
  stamp: 
    secs: 0
    nsecs:         0
  frame_id: "map"
pose: 
  position: 
    x: 4.01492191575
    y: -7.81426527223
    z: 0.0
  orientation: 
    x: 0.0
    y: 0.0
    z: -0.800064882074
    w: 0.599913480821
---
header: 
  seq: 114
  stamp: 
    secs: 0
    nsecs:         0
  frame_id: "map"
pose: 
  position: 
    x: 4.00952183022
    y: -8.11273558308
    z: 0.0
  orientation: 
    x: 0.0
    y: 0.0
    z: -0.814548093057
    w: 0.580096030064
---
header: 
  seq: 115
  stamp: 
    secs: 0
    nsecs:         0
  frame_id: "map"
pose: 
  position: 
    x: 4.00414005524
    y: -8.41195281166
    z: 0.0
  orientation: 
    x: 0.0
    y: 0.0
    z: -0.828539074612
    w: 0.559931247424
---
header: 
  seq: 116
  stamp: 
    secs: 0
    nsecs:         0
  frame_id: "map"
pose: 
  position: 
    x: 3.9531116121
    y: -8.7121397363
    z: 0.0
  orientation: 
    x: 0.0
    y: 0.0
    z: -0.800065025105
    w: 0.599913290071
---
header: 
  seq: 117
  stamp: 
    secs: 0
    nsecs:         0
  frame_id: "map"
pose: 
  position: 
    x: 3.96293369476
    y: -9.01053604201
    z: 0.0
  orientation: 
    x: 0.0
    y: 0.0
    z: -0.828539074612
    w: 0.559931247424
---
header: 
  seq: 118
  stamp: 
    secs: 0
    nsecs:         0
  frame_id: "map"
pose: 
  position: 
    x: 3.91190525162
    y: -9.31072296665
    z: 0.0
  orientation: 
    x: 0.0
    y: 0.0
    z: -0.800066455407
    w: 0.599911382566
---
header: 
  seq: 119
  stamp: 
    secs: 0
    nsecs:         0
  frame_id: "map"
pose: 
  position: 
    x: 3.90605960944
    y: -9.44512696035
    z: 0.0
  orientation: 
    x: 0.0
    y: 0.0
    z: 0.996890078583
    w: -0.0788046396069
---
header: 
  seq: 120
  stamp: 
    secs: 0
    nsecs:         0
  frame_id: "map"
pose: 
  position: 
    x: 3.85618015313
    y: -9.4416944957
    z: 0.0
  orientation: 
    x: 0.0
    y: 0.0
    z: 0.996890228889
    w: -0.0788027381898
---
header: 
  seq: 121
  stamp: 
    secs: 0
    nsecs:         0
  frame_id: "map"
pose: 
  position: 
    x: 3.76186557653
    y: -9.56571488329
    z: 0.0
  orientation: 
    x: 0.0
    y: 0.0
    z: 0.760631750723
    w: 0.649183594826
---
header: 
  seq: 122
  stamp: 
    secs: 0
    nsecs:         0
  frame_id: "map"
pose: 
  position: 
    x: 3.68279147868
    y: -9.30263962303
    z: 0.0
  orientation: 
    x: 0.0
    y: 0.0
    z: 0.638445915672
    w: 0.769666689393
---
header: 
  seq: 123
  stamp: 
    secs: 0
    nsecs:         0
  frame_id: "map"
pose: 
  position: 
    x: 3.71831241426
    y: -9.00030578673
    z: 0.0
  orientation: 
    x: 0.0
    y: 0.0
    z: 0.657142246273
    w: 0.753766587322
---
header: 
  seq: 124
  stamp: 
    secs: 0
    nsecs:         0
  frame_id: "map"
pose: 
  position: 
    x: 3.73891635744
    y: -8.70101302715
    z: 0.0
  orientation: 
    x: 0.0
    y: 0.0
    z: 0.65714404339
    w: 0.753765020571
---
header: 
  seq: 125
  stamp: 
    secs: 0
    nsecs:         0
  frame_id: "map"
pose: 
  position: 
    x: 3.75951877474
    y: -8.40172255638
    z: 0.0
  orientation: 
    x: 0.0
    y: 0.0
    z: 0.657142246273
    w: 0.753766587322
---
header: 
  seq: 126
  stamp: 
    secs: 0
    nsecs:         0
  frame_id: "map"
pose: 
  position: 
    x: 3.78012271792
    y: -8.10243055973
    z: 0.0
  orientation: 
    x: 0.0
    y: 0.0
    z: 0.657142246273
    w: 0.753766587322
---
header: 
  seq: 127
  stamp: 
    secs: 0
    nsecs:         0
  frame_id: "map"
pose: 
  position: 
    x: 3.8007266611
    y: -7.80313780014
    z: 0.0
  orientation: 
    x: 0.0
    y: 0.0
    z: 0.65714404339
    w: 0.753765020571
---
header: 
  seq: 128
  stamp: 
    secs: 0
    nsecs:         0
  frame_id: "map"
pose: 
  position: 
    x: 3.83607822412
    y: -7.5000761196
    z: 0.0
  orientation: 
    x: 0.0
    y: 0.0
    z: 0.675442736711
    w: 0.73741244187
---
header: 
  seq: 129
  stamp: 
    secs: 0
    nsecs:         0
  frame_id: "map"
pose: 
  position: 
    x: 3.8566821673
    y: -7.20078412296
    z: 0.0
  orientation: 
    x: 0.0
    y: 0.0
    z: 0.675442736711
    w: 0.73741244187
---
header: 
  seq: 130
  stamp: 
    secs: 0
    nsecs:         0
  frame_id: "map"
pose: 
  position: 
    x: 3.87728611048
    y: -6.90149212631
    z: 0.0
  orientation: 
    x: 0.0
    y: 0.0
    z: 0.675444494838
    w: 0.737410831487
---
header: 
  seq: 131
  stamp: 
    secs: 0
    nsecs:         0
  frame_id: "map"
pose: 
  position: 
    x: 3.89788852778
    y: -6.6022008926
    z: 0.0
  orientation: 
    x: 0.0
    y: 0.0
    z: 0.675442736711
    w: 0.73741244187
---
header: 
  seq: 132
  stamp: 
    secs: 0
    nsecs:         0
  frame_id: "map"
pose: 
  position: 
    x: 3.91849247096
    y: -6.30290965889
    z: 0.0
  orientation: 
    x: 0.0
    y: 0.0
    z: 0.675442736711
    w: 0.73741244187
---
header: 
  seq: 133
  stamp: 
    secs: 0
    nsecs:         0
  frame_id: "map"
pose: 
  position: 
    x: 3.93909641414
    y: -6.00361766225
    z: 0.0
  orientation: 
    x: 0.0
    y: 0.0
    z: 0.675444494838
    w: 0.737410831487
---
header: 
  seq: 134
  stamp: 
    secs: 0
    nsecs:         0
  frame_id: "map"
pose: 
  position: 
    x: 3.95969883143
    y: -5.7043256656
    z: 0.0
  orientation: 
    x: 0.0
    y: 0.0
    z: 0.675442736711
    w: 0.73741244187
---
header: 
  seq: 135
  stamp: 
    secs: 0
    nsecs:         0
  frame_id: "map"
pose: 
  position: 
    x: 3.98030277461
    y: -5.40503366895
    z: 0.0
  orientation: 
    x: 0.0
    y: 0.0
    z: 0.675442736711
    w: 0.73741244187
---
header: 
  seq: 136
  stamp: 
    secs: 0
    nsecs:         0
  frame_id: "map"
pose: 
  position: 
    x: 4.00090671779
    y: -5.10574319818
    z: 0.0
  orientation: 
    x: 0.0
    y: 0.0
    z: 0.675444494838
    w: 0.737410831487
---
header: 
  seq: 137
  stamp: 
    secs: 0
    nsecs:         0
  frame_id: "map"
pose: 
  position: 
    x: 4.02150913509
    y: -4.80645120154
    z: 0.0
  orientation: 
    x: 0.0
    y: 0.0
    z: 0.675442736711
    w: 0.73741244187
---
header: 
  seq: 138
  stamp: 
    secs: 0
    nsecs:         0
  frame_id: "map"
pose: 
  position: 
    x: 4.04211307827
    y: -4.50715920489
    z: 0.0
  orientation: 
    x: 0.0
    y: 0.0
    z: 0.675442736711
    w: 0.73741244187
---
header: 
  seq: 139
  stamp: 
    secs: 0
    nsecs:         0
  frame_id: "map"
pose: 
  position: 
    x: 4.06271702145
    y: -4.20786720824
    z: 0.0
  orientation: 
    x: 0.0
    y: 0.0
    z: 0.675444494838
    w: 0.737410831487
---
header: 
  seq: 140
  stamp: 
    secs: 0
    nsecs:         0
  frame_id: "map"
pose: 
  position: 
    x: 4.08331943875
    y: -3.90857521159
    z: 0.0
  orientation: 
    x: 0.0
    y: 0.0
    z: 0.675442736711
    w: 0.73741244187
---
header: 
  seq: 141
  stamp: 
    secs: 0
    nsecs:         0
  frame_id: "map"
pose: 
  position: 
    x: 4.10392338192
    y: -3.60928474082
    z: 0.0
  orientation: 
    x: 0.0
    y: 0.0
    z: 0.675442736711
    w: 0.73741244187
---
header: 
  seq: 142
  stamp: 
    secs: 0
    nsecs:         0
  frame_id: "map"
pose: 
  position: 
    x: 4.1245273251
    y: -3.30999274418
    z: 0.0
  orientation: 
    x: 0.0
    y: 0.0
    z: 0.675444494838
    w: 0.737410831487
---
header: 
  seq: 143
  stamp: 
    secs: 0
    nsecs:         0
  frame_id: "map"
pose: 
  position: 
    x: 4.1451297424
    y: -3.01070074753
    z: 0.0
  orientation: 
    x: 0.0
    y: 0.0
    z: 0.675442736711
    w: 0.73741244187
---
header: 
  seq: 144
  stamp: 
    secs: 0
    nsecs:         0
  frame_id: "map"
pose: 
  position: 
    x: 4.16573368558
    y: -2.71140875088
    z: 0.0
  orientation: 
    x: 0.0
    y: 0.0
    z: 0.675442736711
    w: 0.73741244187
---
header: 
  seq: 145
  stamp: 
    secs: 0
    nsecs:         0
  frame_id: "map"
pose: 
  position: 
    x: 4.18633762876
    y: -2.41211828011
    z: 0.0
  orientation: 
    x: 0.0
    y: 0.0
    z: 0.675444494838
    w: 0.737410831487
---
header: 
  seq: 146
  stamp: 
    secs: 0
    nsecs:         0
  frame_id: "map"
pose: 
  position: 
    x: 4.20694004606
    y: -2.11282628347
    z: 0.0
  orientation: 
    x: 0.0
    y: 0.0
    z: 0.675442736711
    w: 0.73741244187
---
header: 
  seq: 147
  stamp: 
    secs: 0
    nsecs:         0
  frame_id: "map"
pose: 
  position: 
    x: 4.22754398923
    y: -1.81353428682
    z: 0.0
  orientation: 
    x: 0.0
    y: 0.0
    z: 0.675442736711
    w: 0.73741244187
---
header: 
  seq: 148
  stamp: 
    secs: 0
    nsecs:         0
  frame_id: "map"
pose: 
  position: 
    x: 4.26269413624
    y: -1.50975162848
    z: 0.0
  orientation: 
    x: 0.0
    y: 0.0
    z: 0.69333808147
    w: 0.720612451172
---
header: 
  seq: 149
  stamp: 
    secs: 0
    nsecs:         0
  frame_id: "map"
pose: 
  position: 
    x: 4.26875034971
    y: -1.21495029353
    z: 0.0
  orientation: 
    x: 0.0
    y: 0.0
    z: 0.675442736711
    w: 0.73741244187
---
header: 
  seq: 150
  stamp: 
    secs: 0
    nsecs:         0
  frame_id: "map"
pose: 
  position: 
    x: 4.28935429289
    y: -0.915659822757
    z: 0.0
  orientation: 
    x: 0.0
    y: 0.0
    z: 0.675442736711
    w: 0.73741244187
---
header: 
  seq: 151
  stamp: 
    secs: 0
    nsecs:         0
  frame_id: "map"
pose: 
  position: 
    x: 4.30995823607
    y: -0.61636782611
    z: 0.0
  orientation: 
    x: 0.0
    y: 0.0
    z: 0.675444494838
    w: 0.737410831487
---
header: 
  seq: 152
  stamp: 
    secs: 0
    nsecs:         0
  frame_id: "map"
pose: 
  position: 
    x: 4.33056065337
    y: -0.317075829462
    z: 0.0
  orientation: 
    x: 0.0
    y: 0.0
    z: 0.675442736711
    w: 0.73741244187
---
header: 
  seq: 153
  stamp: 
    secs: 0
    nsecs:         0
  frame_id: "map"
pose: 
  position: 
    x: 4.35116459655
    y: -0.0177838328151
    z: 0.0
  orientation: 
    x: 0.0
    y: 0.0
    z: 0.675444494838
    w: 0.737410831487
---
header: 
  seq: 154
  stamp: 
    secs: 0
    nsecs:         0
  frame_id: "map"
pose: 
  position: 
    x: 4.37176701384
    y: 0.281508163832
    z: 0.0
  orientation: 
    x: 0.0
    y: 0.0
    z: 0.675442736711
    w: 0.73741244187
---
header: 
  seq: 155
  stamp: 
    secs: 0
    nsecs:         0
  frame_id: "map"
pose: 
  position: 
    x: 4.39237095702
    y: 0.580798634601
    z: 0.0
  orientation: 
    x: 0.0
    y: 0.0
    z: 0.675444494838
    w: 0.737410831487
---
header: 
  seq: 156
  stamp: 
    secs: 0
    nsecs:         0
  frame_id: "map"
pose: 
  position: 
    x: 4.40267063979
    y: 0.730443107045
    z: 0.0
  orientation: 
    x: 0.0
    y: 0.0
    z: 0.675440978581
    w: 0.737414052249
---
header: 
  seq: 157
  stamp: 
    secs: 0
    nsecs:         0
  frame_id: "map"
pose: 
  position: 
    x: 4.32929417386
    y: 1.04347259169
    z: 0.0
  orientation: 
    x: 0.0
    y: 0.0
    z: 0.981796764716
    w: 0.189934496062
---
header: 
  seq: 158
  stamp: 
    secs: 0
    nsecs:         0
  frame_id: "map"
pose: 
  position: 
    x: 4.27695194895
    y: 1.0924685641
    z: 0.0
  orientation: 
    x: 0.0
    y: 0.0
    z: 0.993108010712
    w: 0.117202726331
---
header: 
  seq: 159
  stamp: 
    secs: 0
    nsecs:         0
  frame_id: "map"
pose: 
  position: 
    x: 3.91407505146
    y: 0.913267816801
    z: 0.0
  orientation: 
    x: 0.0
    y: 0.0
    z: -0.800065883287
    w: 0.599912145568
---
header: 
  seq: 160
  stamp: 
    secs: 0
    nsecs:         0
  frame_id: "map"
pose: 
  position: 
    x: 3.90867191417
    y: 0.614796743017
    z: 0.0
  orientation: 
    x: 0.0
    y: 0.0
    z: -0.814548093057
    w: 0.580096030064
---
header: 
  seq: 161
  stamp: 
    secs: 0
    nsecs:         0
  frame_id: "map"
pose: 
  position: 
    x: 3.90329166507
    y: 0.315579514438
    z: 0.0
  orientation: 
    x: 0.0
    y: 0.0
    z: -0.828539074612
    w: 0.559931247424
---
header: 
  seq: 162
  stamp: 
    secs: 0
    nsecs:         0
  frame_id: "map"
pose: 
  position: 
    x: 3.85226322192
    y: 0.015391826859
    z: 0.0
  orientation: 
    x: 0.0
    y: 0.0
    z: -0.800064882074
    w: 0.599913480821
---
header: 
  seq: 163
  stamp: 
    secs: 0
    nsecs:         0
  frame_id: "map"
pose: 
  position: 
    x: 3.86208530459
    y: -0.283004478857
    z: 0.0
  orientation: 
    x: 0.0
    y: 0.0
    z: -0.828539074612
    w: 0.559931247424
---
header: 
  seq: 164
  stamp: 
    secs: 0
    nsecs:         0
  frame_id: "map"
pose: 
  position: 
    x: 3.81105686145
    y: -0.583189114678
    z: 0.0
  orientation: 
    x: 0.0
    y: 0.0
    z: -0.800066598437
    w: 0.599911191815
---
header: 
  seq: 165
  stamp: 
    secs: 0
    nsecs:         0
  frame_id: "map"
pose: 
  position: 
    x: 3.80565372416
    y: -0.881660188461
    z: 0.0
  orientation: 
    x: 0.0
    y: 0.0
    z: -0.814546571692
    w: 0.5800981663
---
header: 
  seq: 166
  stamp: 
    secs: 0
    nsecs:         0
  frame_id: "map"
pose: 
  position: 
    x: 3.80027500093
    y: -1.18087741704
    z: 0.0
  orientation: 
    x: 0.0
    y: 0.0
    z: -0.828539074612
    w: 0.559931247424
---
header: 
  seq: 167
  stamp: 
    secs: 0
    nsecs:         0
  frame_id: "map"
pose: 
  position: 
    x: 3.76444736368
    y: -1.48024418176
    z: 0.0
  orientation: 
    x: 0.0
    y: 0.0
    z: -0.814548093057
    w: 0.580096030064
---
header: 
  seq: 168
  stamp: 
    secs: 0
    nsecs:         0
  frame_id: "map"
pose: 
  position: 
    x: 3.75906711458
    y: -1.77946141034
    z: 0.0
  orientation: 
    x: 0.0
    y: 0.0
    z: -0.828537606131
    w: 0.559933420352
---
header: 
  seq: 169
  stamp: 
    secs: 0
    nsecs:         0
  frame_id: "map"
pose: 
  position: 
    x: 3.70804019731
    y: -2.07964909791
    z: 0.0
  orientation: 
    x: 0.0
    y: 0.0
    z: -0.800066455407
    w: 0.599911382566
---
header: 
  seq: 170
  stamp: 
    secs: 0
    nsecs:         0
  frame_id: "map"
pose: 
  position: 
    x: 3.70263706003
    y: -2.3781201717
    z: 0.0
  orientation: 
    x: 0.0
    y: 0.0
    z: -0.814548093057
    w: 0.580096030064
---
header: 
  seq: 171
  stamp: 
    secs: 0
    nsecs:         0
  frame_id: "map"
pose: 
  position: 
    x: 3.65168948847
    y: -2.67980016887
    z: 0.0
  orientation: 
    x: 0.0
    y: 0.0
    z: -0.785101408224
    w: 0.619367240662
---
header: 
  seq: 172
  stamp: 
    secs: 0
    nsecs:         0
  frame_id: "map"
pose: 
  position: 
    x: 3.66143069955
    y: -2.97670416499
    z: 0.0
  orientation: 
    x: 0.0
    y: 0.0
    z: -0.814548093057
    w: 0.580096030064
---
header: 
  seq: 173
  stamp: 
    secs: 0
    nsecs:         0
  frame_id: "map"
pose: 
  position: 
    x: 3.65605045044
    y: -3.27591834181
    z: 0.0
  orientation: 
    x: 0.0
    y: 0.0
    z: -0.82853920811
    w: 0.559931049885
---
header: 
  seq: 174
  stamp: 
    secs: 0
    nsecs:         0
  frame_id: "map"
pose: 
  position: 
    x: 3.6050220073
    y: -3.57610602939
    z: 0.0
  orientation: 
    x: 0.0
    y: 0.0
    z: -0.800064882074
    w: 0.599913480821
---
header: 
  seq: 175
  stamp: 
    secs: 0
    nsecs:         0
  frame_id: "map"
pose: 
  position: 
    x: 3.61484408997
    y: -3.87450233511
    z: 0.0
  orientation: 
    x: 0.0
    y: 0.0
    z: -0.828539074612
    w: 0.559931247424
---
header: 
  seq: 176
  stamp: 
    secs: 0
    nsecs:         0
  frame_id: "map"
pose: 
  position: 
    x: 3.56381564682
    y: -4.17469002269
    z: 0.0
  orientation: 
    x: 0.0
    y: 0.0
    z: -0.800066455407
    w: 0.599911382566
---
header: 
  seq: 177
  stamp: 
    secs: 0
    nsecs:         0
  frame_id: "map"
pose: 
  position: 
    x: 3.55841250954
    y: -4.47316109647
    z: 0.0
  orientation: 
    x: 0.0
    y: 0.0
    z: -0.814546571692
    w: 0.5800981663
---
header: 
  seq: 178
  stamp: 
    secs: 0
    nsecs:         0
  frame_id: "map"
pose: 
  position: 
    x: 3.55303378631
    y: -4.77237832505
    z: 0.0
  orientation: 
    x: 0.0
    y: 0.0
    z: -0.828539074612
    w: 0.559931247424
---
header: 
  seq: 179
  stamp: 
    secs: 0
    nsecs:         0
  frame_id: "map"
pose: 
  position: 
    x: 3.50200534317
    y: -5.07256601263
    z: 0.0
  orientation: 
    x: 0.0
    y: 0.0
    z: -0.800066455407
    w: 0.599911382566
---
header: 
  seq: 180
  stamp: 
    secs: 0
    nsecs:         0
  frame_id: "map"
pose: 
  position: 
    x: 3.51182589996
    y: -5.37096231835
    z: 0.0
  orientation: 
    x: 0.0
    y: 0.0
    z: -0.828537606131
    w: 0.559933420352
---
header: 
  seq: 181
  stamp: 
    secs: 0
    nsecs:         0
  frame_id: "map"
pose: 
  position: 
    x: 3.46079898269
    y: -5.67115000592
    z: 0.0
  orientation: 
    x: 0.0
    y: 0.0
    z: -0.800066455407
    w: 0.599911382566
---
header: 
  seq: 182
  stamp: 
    secs: 0
    nsecs:         0
  frame_id: "map"
pose: 
  position: 
    x: 3.45539737128
    y: -5.96961955383
    z: 0.0
  orientation: 
    x: 0.0
    y: 0.0
    z: -0.814548231363
    w: 0.580095835861
---
header: 
  seq: 183
  stamp: 
    secs: 0
    nsecs:         0
  frame_id: "map"
pose: 
  position: 
    x: 3.4500155963
    y: -6.26883678241
    z: 0.0
  orientation: 
    x: 0.0
    y: 0.0
    z: -0.828537606131
    w: 0.559933420352
---
header: 
  seq: 184
  stamp: 
    secs: 0
    nsecs:         0
  frame_id: "map"
pose: 
  position: 
    x: 3.41419101081
    y: -6.56820278418
    z: 0.0
  orientation: 
    x: 0.0
    y: 0.0
    z: -0.814548093057
    w: 0.580096030064
---
header: 
  seq: 185
  stamp: 
    secs: 0
    nsecs:         0
  frame_id: "map"
pose: 
  position: 
    x: 3.40880923582
    y: -6.86742001276
    z: 0.0
  orientation: 
    x: 0.0
    y: 0.0
    z: -0.828537606131
    w: 0.559933420352
---
header: 
  seq: 186
  stamp: 
    secs: 0
    nsecs:         0
  frame_id: "map"
pose: 
  position: 
    x: 3.35778231856
    y: -7.1676069374
    z: 0.0
  orientation: 
    x: 0.0
    y: 0.0
    z: -0.800066455407
    w: 0.599911382566
---
header: 
  seq: 187
  stamp: 
    secs: 0
    nsecs:         0
  frame_id: "map"
pose: 
  position: 
    x: 3.35237918127
    y: -7.46607801119
    z: 0.0
  orientation: 
    x: 0.0
    y: 0.0
    z: -0.814548093057
    w: 0.580096030064
---
header: 
  seq: 188
  stamp: 
    secs: 0
    nsecs:         0
  frame_id: "map"
pose: 
  position: 
    x: 3.30143160971
    y: -7.76775800836
    z: 0.0
  orientation: 
    x: 0.0
    y: 0.0
    z: -0.785101408224
    w: 0.619367240662
---
header: 
  seq: 189
  stamp: 
    secs: 0
    nsecs:         0
  frame_id: "map"
pose: 
  position: 
    x: 3.31117434667
    y: -8.06466124154
    z: 0.0
  orientation: 
    x: 0.0
    y: 0.0
    z: -0.814548093057
    w: 0.580096030064
---
header: 
  seq: 190
  stamp: 
    secs: 0
    nsecs:         0
  frame_id: "map"
pose: 
  position: 
    x: 3.30579257169
    y: -8.36387847012
    z: 0.0
  orientation: 
    x: 0.0
    y: 0.0
    z: -0.828537606131
    w: 0.559933420352
---
header: 
  seq: 191
  stamp: 
    secs: 0
    nsecs:         0
  frame_id: "map"
pose: 
  position: 
    x: 3.25476565443
    y: -8.66406539476
    z: 0.0
  orientation: 
    x: 0.0
    y: 0.0
    z: -0.800066455407
    w: 0.599911382566
---
header: 
  seq: 192
  stamp: 
    secs: 0
    nsecs:         0
  frame_id: "map"
pose: 
  position: 
    x: 3.26458621121
    y: -8.96246170048
    z: 0.0
  orientation: 
    x: 0.0
    y: 0.0
    z: -0.828539074612
    w: 0.559931247424
---
header: 
  seq: 193
  stamp: 
    secs: 0
    nsecs:         0
  frame_id: "map"
pose: 
  position: 
    x: 3.21355776807
    y: -9.26264862512
    z: 0.0
  orientation: 
    x: 0.0
    y: 0.0
    z: -0.800065025105
    w: 0.599913290071
---
header: 
  seq: 194
  stamp: 
    secs: 0
    nsecs:         0
  frame_id: "map"
pose: 
  position: 
    x: 3.20771365177
    y: -9.39705261882
    z: 0.0
  orientation: 
    x: 0.0
    y: 0.0
    z: 0.996890078583
    w: -0.0788046396069
---
header: 
  seq: 195
  stamp: 
    secs: 0
    nsecs:         0
  frame_id: "map"
pose: 
  position: 
    x: 3.1578311437
    y: -9.39361939123
    z: 0.0
  orientation: 
    x: 0.0
    y: 0.0
    z: 0.996890153736
    w: -0.0788036888984
---
header: 
  seq: 196
  stamp: 
    secs: 0
    nsecs:         0
  frame_id: "map"
pose: 
  position: 
    x: 3.0501269795
    y: -9.52488312609
    z: 0.0
  orientation: 
    x: 0.0
    y: 0.0
    z: 0.744469261422
    w: 0.667656737252
---
header: 
  seq: 197
  stamp: 
    secs: 0
    nsecs:         0
  frame_id: "map"
pose: 
  position: 
    x: 2.99936251341
    y: -9.25152191597
    z: 0.0
  orientation: 
    x: 0.0
    y: 0.0
    z: 0.65714404339
    w: 0.753765020571
---
header: 
  seq: 198
  stamp: 
    secs: 0
    nsecs:         0
  frame_id: "map"
pose: 
  position: 
    x: 3.01996493071
    y: -8.9522314452
    z: 0.0
  orientation: 
    x: 0.0
    y: 0.0
    z: 0.657142246273
    w: 0.753766587322
---
header: 
  seq: 199
  stamp: 
    secs: 0
    nsecs:         0
  frame_id: "map"
pose: 
  position: 
    x: 3.04056887389
    y: -8.65293944855
    z: 0.0
  orientation: 
    x: 0.0
    y: 0.0
    z: 0.657142246273
    w: 0.753766587322
---
header: 
  seq: 200
  stamp: 
    secs: 0
    nsecs:         0
  frame_id: "map"
pose: 
  position: 
    x: 3.06117281707
    y: -8.3536474519
    z: 0.0
  orientation: 
    x: 0.0
    y: 0.0
    z: 0.65714404339
    w: 0.753765020571
---
header: 
  seq: 201
  stamp: 
    secs: 0
    nsecs:         0
  frame_id: "map"
pose: 
  position: 
    x: 3.0965243801
    y: -8.05058500842
    z: 0.0
  orientation: 
    x: 0.0
    y: 0.0
    z: 0.675442736711
    w: 0.73741244187
---
header: 
  seq: 202
  stamp: 
    secs: 0
    nsecs:         0
  frame_id: "map"
pose: 
  position: 
    x: 3.11712832327
    y: -7.75129301177
    z: 0.0
  orientation: 
    x: 0.0
    y: 0.0
    z: 0.675442736711
    w: 0.73741244187
---
header: 
  seq: 203
  stamp: 
    secs: 0
    nsecs:         0
  frame_id: "map"
pose: 
  position: 
    x: 3.13773226645
    y: -7.45200101513
    z: 0.0
  orientation: 
    x: 0.0
    y: 0.0
    z: 0.675444494838
    w: 0.737410831487
---
header: 
  seq: 204
  stamp: 
    secs: 0
    nsecs:         0
  frame_id: "map"
pose: 
  position: 
    x: 3.15833468375
    y: -7.15270978142
    z: 0.0
  orientation: 
    x: 0.0
    y: 0.0
    z: 0.675442736711
    w: 0.73741244187
---
header: 
  seq: 205
  stamp: 
    secs: 0
    nsecs:         0
  frame_id: "map"
pose: 
  position: 
    x: 3.17893862693
    y: -6.85341854771
    z: 0.0
  orientation: 
    x: 0.0
    y: 0.0
    z: 0.675442736711
    w: 0.73741244187
---
header: 
  seq: 206
  stamp: 
    secs: 0
    nsecs:         0
  frame_id: "map"
pose: 
  position: 
    x: 3.19954257011
    y: -6.55412578812
    z: 0.0
  orientation: 
    x: 0.0
    y: 0.0
    z: 0.675444494838
    w: 0.737410831487
---
header: 
  seq: 207
  stamp: 
    secs: 0
    nsecs:         0
  frame_id: "map"
pose: 
  position: 
    x: 3.22014498741
    y: -6.25483531736
    z: 0.0
  orientation: 
    x: 0.0
    y: 0.0
    z: 0.675442736711
    w: 0.73741244187
---
header: 
  seq: 208
  stamp: 
    secs: 0
    nsecs:         0
  frame_id: "map"
pose: 
  position: 
    x: 3.24074893058
    y: -5.95554179483
    z: 0.0
  orientation: 
    x: 0.0
    y: 0.0
    z: 0.675442736711
    w: 0.73741244187
---
header: 
  seq: 209
  stamp: 
    secs: 0
    nsecs:         0
  frame_id: "map"
pose: 
  position: 
    x: 3.26135287376
    y: -5.65624979818
    z: 0.0
  orientation: 
    x: 0.0
    y: 0.0
    z: 0.675444494838
    w: 0.737410831487
---
header: 
  seq: 210
  stamp: 
    secs: 0
    nsecs:         0
  frame_id: "map"
pose: 
  position: 
    x: 3.28195529106
    y: -5.35695780154
    z: 0.0
  orientation: 
    x: 0.0
    y: 0.0
    z: 0.675442736711
    w: 0.73741244187
---
header: 
  seq: 211
  stamp: 
    secs: 0
    nsecs:         0
  frame_id: "map"
pose: 
  position: 
    x: 3.30255923424
    y: -5.05766733077
    z: 0.0
  orientation: 
    x: 0.0
    y: 0.0
    z: 0.675442736711
    w: 0.73741244187
---
header: 
  seq: 212
  stamp: 
    secs: 0
    nsecs:         0
  frame_id: "map"
pose: 
  position: 
    x: 3.32316317742
    y: -4.75837533412
    z: 0.0
  orientation: 
    x: 0.0
    y: 0.0
    z: 0.675444494838
    w: 0.737410831487
---
header: 
  seq: 213
  stamp: 
    secs: 0
    nsecs:         0
  frame_id: "map"
pose: 
  position: 
    x: 3.34376559472
    y: -4.45908333747
    z: 0.0
  orientation: 
    x: 0.0
    y: 0.0
    z: 0.675442736711
    w: 0.73741244187
---
header: 
  seq: 214
  stamp: 
    secs: 0
    nsecs:         0
  frame_id: "map"
pose: 
  position: 
    x: 3.3643695379
    y: -4.15979134082
    z: 0.0
  orientation: 
    x: 0.0
    y: 0.0
    z: 0.675442736711
    w: 0.73741244187
---
header: 
  seq: 215
  stamp: 
    secs: 0
    nsecs:         0
  frame_id: "map"
pose: 
  position: 
    x: 3.38497348107
    y: -3.86049934418
    z: 0.0
  orientation: 
    x: 0.0
    y: 0.0
    z: 0.675444494838
    w: 0.737410831487
---
header: 
  seq: 216
  stamp: 
    secs: 0
    nsecs:         0
  frame_id: "map"
pose: 
  position: 
    x: 3.40557589837
    y: -3.56120887341
    z: 0.0
  orientation: 
    x: 0.0
    y: 0.0
    z: 0.675442736711
    w: 0.73741244187
---
header: 
  seq: 217
  stamp: 
    secs: 0
    nsecs:         0
  frame_id: "map"
pose: 
  position: 
    x: 3.42617984155
    y: -3.26191687676
    z: 0.0
  orientation: 
    x: 0.0
    y: 0.0
    z: 0.675442736711
    w: 0.73741244187
---
header: 
  seq: 218
  stamp: 
    secs: 0
    nsecs:         0
  frame_id: "map"
pose: 
  position: 
    x: 3.46132998856
    y: -2.95813421843
    z: 0.0
  orientation: 
    x: 0.0
    y: 0.0
    z: 0.69333808147
    w: 0.720612451172
---
header: 
  seq: 219
  stamp: 
    secs: 0
    nsecs:         0
  frame_id: "map"
pose: 
  position: 
    x: 3.46738620203
    y: -2.66333288347
    z: 0.0
  orientation: 
    x: 0.0
    y: 0.0
    z: 0.675442736711
    w: 0.73741244187
---
header: 
  seq: 220
  stamp: 
    secs: 0
    nsecs:         0
  frame_id: "map"
pose: 
  position: 
    x: 3.48799014521
    y: -2.3640424127
    z: 0.0
  orientation: 
    x: 0.0
    y: 0.0
    z: 0.675444494838
    w: 0.737410831487
---
header: 
  seq: 221
  stamp: 
    secs: 0
    nsecs:         0
  frame_id: "map"
pose: 
  position: 
    x: 3.50859256251
    y: -2.06475041605
    z: 0.0
  orientation: 
    x: 0.0
    y: 0.0
    z: 0.675442736711
    w: 0.73741244187
---
header: 
  seq: 222
  stamp: 
    secs: 0
    nsecs:         0
  frame_id: "map"
pose: 
  position: 
    x: 3.52919650568
    y: -1.7654584194
    z: 0.0
  orientation: 
    x: 0.0
    y: 0.0
    z: 0.675444494838
    w: 0.737410831487
---
header: 
  seq: 223
  stamp: 
    secs: 0
    nsecs:         0
  frame_id: "map"
pose: 
  position: 
    x: 3.56434512681
    y: -1.46167576107
    z: 0.0
  orientation: 
    x: 0.0
    y: 0.0
    z: 0.693336363394
    w: 0.720614104216
---
header: 
  seq: 224
  stamp: 
    secs: 0
    nsecs:         0
  frame_id: "map"
pose: 
  position: 
    x: 3.57040286616
    y: -1.16687442611
    z: 0.0
  orientation: 
    x: 0.0
    y: 0.0
    z: 0.675442736711
    w: 0.73741244187
---
header: 
  seq: 225
  stamp: 
    secs: 0
    nsecs:         0
  frame_id: "map"
pose: 
  position: 
    x: 3.59100680934
    y: -0.867583955341
    z: 0.0
  orientation: 
    x: 0.0
    y: 0.0
    z: 0.675444494838
    w: 0.737410831487
---
header: 
  seq: 226
  stamp: 
    secs: 0
    nsecs:         0
  frame_id: "map"
pose: 
  position: 
    x: 3.61160922664
    y: -0.568291958694
    z: 0.0
  orientation: 
    x: 0.0
    y: 0.0
    z: 0.675442736711
    w: 0.73741244187
---
header: 
  seq: 227
  stamp: 
    secs: 0
    nsecs:         0
  frame_id: "map"
pose: 
  position: 
    x: 3.63221316982
    y: -0.268999962047
    z: 0.0
  orientation: 
    x: 0.0
    y: 0.0
    z: 0.675442736711
    w: 0.73741244187
---
header: 
  seq: 228
  stamp: 
    secs: 0
    nsecs:         0
  frame_id: "map"
pose: 
  position: 
    x: 3.65281711299
    y: 0.0302920346006
    z: 0.0
  orientation: 
    x: 0.0
    y: 0.0
    z: 0.675444494838
    w: 0.737410831487
---
header: 
  seq: 229
  stamp: 
    secs: 0
    nsecs:         0
  frame_id: "map"
pose: 
  position: 
    x: 3.67341953029
    y: 0.329584031248
    z: 0.0
  orientation: 
    x: 0.0
    y: 0.0
    z: 0.675442736711
    w: 0.73741244187
---
header: 
  seq: 230
  stamp: 
    secs: 0
    nsecs:         0
  frame_id: "map"
pose: 
  position: 
    x: 3.69402347347
    y: 0.628874502016
    z: 0.0
  orientation: 
    x: 0.0
    y: 0.0
    z: 0.675442736711
    w: 0.73741244187
---
header: 
  seq: 231
  stamp: 
    secs: 0
    nsecs:         0
  frame_id: "map"
pose: 
  position: 
    x: 3.704326208
    y: 0.77852050034
    z: 0.0
  orientation: 
    x: 0.0
    y: 0.0
    z: 0.675444494838
    w: 0.737410831487
---
header: 
  seq: 232
  stamp: 
    secs: 0
    nsecs:         0
  frame_id: "map"
pose: 
  position: 
    x: 3.63094821618
    y: 1.09154845911
    z: 0.0
  orientation: 
    x: 0.0
    y: 0.0
    z: 0.981797217552
    w: 0.189932155275
---
header: 
  seq: 233
  stamp: 
    secs: 0
    nsecs:         0
  frame_id: "map"
pose: 
  position: 
    x: 3.5786044654
    y: 1.14054443152
    z: 0.0
  orientation: 
    x: 0.0
    y: 0.0
    z: 0.993108122485
    w: 0.11720177923
---
header: 
  seq: 234
  stamp: 
    secs: 0
    nsecs:         0
  frame_id: "map"
pose: 
  position: 
    x: 3.20058474542
    y: 0.959776606556
    z: 0.0
  orientation: 
    x: 0.0
    y: 0.0
    z: -0.785102441903
    w: 0.619365930382
---
header: 
  seq: 235
  stamp: 
    secs: 0
    nsecs:         0
  frame_id: "map"
pose: 
  position: 
    x: 3.21032443062
    y: 0.662872610433
    z: 0.0
  orientation: 
    x: 0.0
    y: 0.0
    z: -0.814548093057
    w: 0.580096030064
---
header: 
  seq: 236
  stamp: 
    secs: 0
    nsecs:         0
  frame_id: "map"
pose: 
  position: 
    x: 3.20494418152
    y: 0.363655381853
    z: 0.0
  orientation: 
    x: 0.0
    y: 0.0
    z: -0.828537606131
    w: 0.559933420352
---
header: 
  seq: 237
  stamp: 
    secs: 0
    nsecs:         0
  frame_id: "map"
pose: 
  position: 
    x: 3.15391726425
    y: 0.0634676942746
    z: 0.0
  orientation: 
    x: 0.0
    y: 0.0
    z: -0.800066455407
    w: 0.599911382566
---
header: 
  seq: 238
  stamp: 
    secs: 0
    nsecs:         0
  frame_id: "map"
pose: 
  position: 
    x: 3.16373782104
    y: -0.234928611441
    z: 0.0
  orientation: 
    x: 0.0
    y: 0.0
    z: -0.828539074612
    w: 0.559931247424
---
header: 
  seq: 239
  stamp: 
    secs: 0
    nsecs:         0
  frame_id: "map"
pose: 
  position: 
    x: 3.1127093779
    y: -0.535114773141
    z: 0.0
  orientation: 
    x: 0.0
    y: 0.0
    z: -0.800065025105
    w: 0.599913290071
---
header: 
  seq: 240
  stamp: 
    secs: 0
    nsecs:         0
  frame_id: "map"
pose: 
  position: 
    x: 3.10730776649
    y: -0.833585846925
    z: 0.0
  orientation: 
    x: 0.0
    y: 0.0
    z: -0.814548093057
    w: 0.580096030064
---
header: 
  seq: 241
  stamp: 
    secs: 0
    nsecs:         0
  frame_id: "map"
pose: 
  position: 
    x: 3.10192751738
    y: -1.1328030755
    z: 0.0
  orientation: 
    x: 0.0
    y: 0.0
    z: -0.828539074612
    w: 0.559931247424
---
header: 
  seq: 242
  stamp: 
    secs: 0
    nsecs:         0
  frame_id: "map"
pose: 
  position: 
    x: 3.05089907424
    y: -1.43299076308
    z: 0.0
  orientation: 
    x: 0.0
    y: 0.0
    z: -0.800064882074
    w: 0.599913480821
---
header: 
  seq: 243
  stamp: 
    secs: 0
    nsecs:         0
  frame_id: "map"
pose: 
  position: 
    x: 3.06072115691
    y: -1.7313870688
    z: 0.0
  orientation: 
    x: 0.0
    y: 0.0
    z: -0.828539074612
    w: 0.559931247424
---
header: 
  seq: 244
  stamp: 
    secs: 0
    nsecs:         0
  frame_id: "map"
pose: 
  position: 
    x: 3.00969271376
    y: -2.0315732305
    z: 0.0
  orientation: 
    x: 0.0
    y: 0.0
    z: -0.800066598437
    w: 0.599911191815
---
header: 
  seq: 245
  stamp: 
    secs: 0
    nsecs:         0
  frame_id: "map"
pose: 
  position: 
    x: 3.00428957648
    y: -2.33004430428
    z: 0.0
  orientation: 
    x: 0.0
    y: 0.0
    z: -0.814546571692
    w: 0.5800981663
---
header: 
  seq: 246
  stamp: 
    secs: 0
    nsecs:         0
  frame_id: "map"
pose: 
  position: 
    x: 2.95334353079
    y: -2.63172430145
    z: 0.0
  orientation: 
    x: 0.0
    y: 0.0
    z: -0.785103032576
    w: 0.61936518165
---
header: 
  seq: 247
  stamp: 
    secs: 0
    nsecs:         0
  frame_id: "map"
pose: 
  position: 
    x: 2.963083216
    y: -2.92862829758
    z: 0.0
  orientation: 
    x: 0.0
    y: 0.0
    z: -0.814548093057
    w: 0.580096030064
---
header: 
  seq: 248
  stamp: 
    secs: 0
    nsecs:         0
  frame_id: "map"
pose: 
  position: 
    x: 2.95770296689
    y: -3.22784400028
    z: 0.0
  orientation: 
    x: 0.0
    y: 0.0
    z: -0.828537739629
    w: 0.559933222814
